[
  {
    "name": "MUANZO MPYA ORGANISATION",
    "nodeId": "12300475666",
    "latitude": -1.3154688,
    "longitude": 36.7753889,
    "btcMapUrl": "https://btcmap.org/merchant/node:12300475666"
  },
  {
    "name": "BLACK AND WHITE",
    "nodeId": "12300467146",
    "latitude": -1.3153178,
    "longitude": 36.7753389,
    "btcMapUrl": "https://btcmap.org/merchant/node:12300467146"
  },
  {
    "name": "JOSEPH PUBLIC WASHROOM",
    "nodeId": "12300462657",
    "latitude": -1.3153938,
    "longitude": 36.7753496,
    "btcMapUrl": "https://btcmap.org/merchant/node:12300462657"
  },
  {
    "name": "KHEEZONIX FASHIONS AND STYLES",
    "nodeId": "12300462658",
    "latitude": -1.3153553,
    "longitude": 36.7753935,
    "btcMapUrl": "https://btcmap.org/merchant/node:12300462658"
  },
  {
    "name": "BIOGAS PUBLIC WASHROOMS",
    "nodeId": "12300462655",
    "latitude": -1.3154473,
    "longitude": 36.7753734,
    "btcMapUrl": "https://btcmap.org/merchant/node:12300462655"
  },
  {
    "name": "ABUKI DISTRIBUTORS",
    "nodeId": "12300462656",
    "latitude": -1.3153899,
    "longitude": 36.7753604,
    "btcMapUrl": "https://btcmap.org/merchant/node:12300462656"
  },
  {
    "name": "Yummytummygoodies",
    "nodeId": "12167701319",
    "latitude": -1.3162669,
    "longitude": 36.7758709,
    "btcMapUrl": "https://btcmap.org/merchant/node:12167701319"
  },
  {
    "name": "3WEST BUTCHERY",
    "nodeId": "12300469780",
    "latitude": -1.3162886,
    "longitude": 36.7761446,
    "btcMapUrl": "https://btcmap.org/merchant/node:12300469780"
  },
  {
    "name": "Kibera the Largest slum tour",
    "nodeId": "12300469783",
    "latitude": -1.3163203,
    "longitude": 36.776195,
    "btcMapUrl": "https://btcmap.org/merchant/node:12300469783"
  },
  {
    "name": "Evalyncafeterian",
    "nodeId": "12700628232",
    "latitude": -1.31638,
    "longitude": 36.77609,
    "btcMapUrl": "https://btcmap.org/merchant/node:12700628232"
  },
  {
    "name": "ABEBO VEGEZ",
    "nodeId": "12300439008",
    "latitude": -1.316352,
    "longitude": 36.7761673,
    "btcMapUrl": "https://btcmap.org/merchant/node:12300439008"
  },
  {
    "name": "MAMA NONNY SHOP",
    "nodeId": "12300462946",
    "latitude": -1.3162781,
    "longitude": 36.7761248,
    "btcMapUrl": "https://btcmap.org/merchant/node:12300462946"
  },
  {
    "name": "Domiano Fast foods",
    "nodeId": "12700702059",
    "latitude": -1.31657,
    "longitude": 36.77625,
    "btcMapUrl": "https://btcmap.org/merchant/node:12700702059"
  },
  {
    "name": "Wamboya",
    "nodeId": "12700702058",
    "latitude": -1.3165775,
    "longitude": 36.7764178,
    "btcMapUrl": "https://btcmap.org/merchant/node:12700702058"
  },
  {
    "name": "ACGassuppliers",
    "nodeId": "12700702057",
    "latitude": -1.3165775,
    "longitude": 36.7764531,
    "btcMapUrl": "https://btcmap.org/merchant/node:12700702057"
  },
  {
    "name": "GalaxyToilets",
    "nodeId": "12700702056",
    "latitude": -1.31664,
    "longitude": 36.77622,
    "btcMapUrl": "https://btcmap.org/merchant/node:12700702056"
  },
  {
    "name": "Mama Clinton Groceries",
    "nodeId": "12700702055",
    "latitude": -1.31673,
    "longitude": 36.77701,
    "btcMapUrl": "https://btcmap.org/merchant/node:12700702055"
  },
  {
    "name": "Fred Collections",
    "nodeId": "12700702054",
    "latitude": -1.31725,
    "longitude": 36.77808,
    "btcMapUrl": "https://btcmap.org/merchant/node:12700702054"
  },
  {
    "name": "Arca Tech Services",
    "nodeId": "12300515181",
    "latitude": -1.3262898,
    "longitude": 36.7744848,
    "btcMapUrl": "https://btcmap.org/merchant/node:12300515181"
  },
  {
    "name": "Maji safi",
    "nodeId": "12300469782",
    "latitude": -1.3163061,
    "longitude": 36.7761773,
    "btcMapUrl": "https://btcmap.org/merchant/node:12300469782"
  },
  {
    "name": "WERE TOURS",
    "nodeId": "12300462913",
    "latitude": -1.31544,
    "longitude": 36.7753815,
    "btcMapUrl": "https://btcmap.org/merchant/node:12300462913"
  },
  {
    "name": "WILSON ASWETO",
    "nodeId": "12300443594",
    "latitude": -1.3165382,
    "longitude": 36.7762789,
    "btcMapUrl": "https://btcmap.org/merchant/node:12300443594"
  },
  {
    "name": "ELIJAH DRAXLER",
    "nodeId": "12300443592",
    "latitude": -1.3165359,
    "longitude": 36.7762768,
    "btcMapUrl": "https://btcmap.org/merchant/node:12300443592"
  },
  {
    "name": "MOSESO RIDES",
    "nodeId": "12300433274",
    "latitude": -1.316536,
    "longitude": 36.7762784,
    "btcMapUrl": "https://btcmap.org/merchant/node:12300433274"
  },
  {
    "name": "CHARLIE RIDER",
    "nodeId": "12300433273",
    "latitude": -1.3165361,
    "longitude": 36.7762838,
    "btcMapUrl": "https://btcmap.org/merchant/node:12300433273"
  },
  {
    "name": "BIG BROTHER CAR WASH",
    "nodeId": "12300417204",
    "latitude": -1.3175001,
    "longitude": 36.7780995,
    "btcMapUrl": "https://btcmap.org/merchant/node:12300417204"
  },
  {
    "name": "Unique Barber Shop",
    "nodeId": "12254721499",
    "latitude": -1.323549,
    "longitude": 36.780057,
    "btcMapUrl": "https://btcmap.org/merchant/node:12254721499"
  },
  {
    "name": "Shiko's Ferments",
    "nodeId": "12281745878",
    "latitude": -1.3262918,
    "longitude": 36.7745343,
    "btcMapUrl": "https://btcmap.org/merchant/node:12281745878"
  },
  {
    "name": "Kosmos Solutions LTD",
    "nodeId": "12281743822",
    "latitude": -1.3262854,
    "longitude": 36.774496,
    "btcMapUrl": "https://btcmap.org/merchant/node:12281743822"
  },
  {
    "name": "Outdoor Kids Kenya",
    "nodeId": "12281727715",
    "latitude": -1.3262825,
    "longitude": 36.7745143,
    "btcMapUrl": "https://btcmap.org/merchant/node:12281727715"
  },
  {
    "name": "Njema Safaris",
    "nodeId": "12280177485",
    "latitude": -1.3262967,
    "longitude": 36.7744685,
    "btcMapUrl": "https://btcmap.org/merchant/node:12280177485"
  },
  {
    "name": "Greencard Mtaani",
    "nodeId": "12255259652",
    "latitude": -1.317556,
    "longitude": 36.800528,
    "btcMapUrl": "https://btcmap.org/merchant/node:12255259652"
  },
  {
    "name": "RonnieFund",
    "nodeId": "12280168473",
    "latitude": -1.326282,
    "longitude": 36.7744761,
    "btcMapUrl": "https://btcmap.org/merchant/node:12280168473"
  },
  {
    "name": "Obadia Nyaenda",
    "nodeId": "12254733210",
    "latitude": -1.316536,
    "longitude": 36.776282,
    "btcMapUrl": "https://btcmap.org/merchant/node:12254733210"
  },
  {
    "name": "Kera Transport",
    "nodeId": "12254728433",
    "latitude": -1.316536,
    "longitude": 36.776281,
    "btcMapUrl": "https://btcmap.org/merchant/node:12254728433"
  },
  {
    "name": "Felix",
    "nodeId": "12254728431",
    "latitude": -1.316536,
    "longitude": 36.77628,
    "btcMapUrl": "https://btcmap.org/merchant/node:12254728431"
  },
  {
    "name": "Mama Design",
    "nodeId": "12254678587",
    "latitude": -1.3172348,
    "longitude": 36.7770329,
    "btcMapUrl": "https://btcmap.org/merchant/node:12254678587"
  },
  {
    "name": "Calisto Enterprise",
    "nodeId": "12253101509",
    "latitude": -1.3175962,
    "longitude": 36.7781406,
    "btcMapUrl": "https://btcmap.org/merchant/node:12253101509"
  },
  {
    "name": "Kevo DS Station",
    "nodeId": "12254686388",
    "latitude": -1.3168,
    "longitude": 36.778401,
    "btcMapUrl": "https://btcmap.org/merchant/node:12254686388"
  },
  {
    "name": "For People Forever LTD",
    "nodeId": "12254728432",
    "latitude": -1.3175197,
    "longitude": 36.7744085,
    "btcMapUrl": "https://btcmap.org/merchant/node:12254728432"
  },
  {
    "name": "Fishpoint Eateries",
    "nodeId": "12254752062",
    "latitude": -1.308111,
    "longitude": 36.782139,
    "btcMapUrl": "https://btcmap.org/merchant/node:12254752062"
  },
  {
    "name": "Spira",
    "nodeId": "12168076295",
    "latitude": -1.326304,
    "longitude": 36.7744835,
    "btcMapUrl": "https://btcmap.org/merchant/node:12168076295"
  },
  {
    "name": "Dess Gaming",
    "nodeId": "12165688182",
    "latitude": -1.2836066,
    "longitude": 36.873254,
    "btcMapUrl": "https://btcmap.org/merchant/node:12165688182"
  }
]